[
  {
    "asset_id": "JN-110-052",
    "line_name": "济南西郊 110kV 输电线路",
    "asset_type": "110kV角钢塔",
    "model": "ZBC-110-21",
    "location": {"lat": 36.6502, "lon": 116.9123, "address": "济南市槐荫区西部"},
    "commission_year": 2015,
    "manager": "李建国",
    "manager_phone": "138-xxxx-1001",
    "voltage_kv": 110,
    "circuit_count": 2,
    "insulator_type": "复合绝缘子 FXBW-110/100",
    "conductor_type": "LGJ-185/30",
    "remarks": "位于市区边缘，雷电活动较为频繁"
  },
  {
    "asset_id": "JN-110-067",
    "line_name": "济南西郊 110kV 输电线路",
    "asset_type": "110kV钢管塔",
    "model": "GG1-110-18",
    "location": {"lat": 36.6678, "lon": 116.9456, "address": "济南市天桥区北部"},
    "commission_year": 2018,
    "manager": "李建国",
    "manager_phone": "138-xxxx-1001",
    "voltage_kv": 110,
    "circuit_count": 1,
    "insulator_type": "复合绝缘子 FXBW-110/100",
    "conductor_type": "LGJ-185/30",
    "remarks": "靠近黄河滩区，地基沉降需重点关注"
  },
  {
    "asset_id": "JN-220-018",
    "line_name": "济南北环 220kV 输电线路",
    "asset_type": "220kV角钢塔",
    "model": "ZBC-220-30",
    "location": {"lat": 36.7212, "lon": 117.0234, "address": "济南市历城区"},
    "commission_year": 2012,
    "manager": "王志强",
    "manager_phone": "139-xxxx-2002",
    "voltage_kv": 220,
    "circuit_count": 2,
    "insulator_type": "瓷质绝缘子 LXY-160",
    "conductor_type": "LGJ-300/40",
    "remarks": "运行年限较长，绝缘子老化风险升高"
  },
  {
    "asset_id": "QD-110-077",
    "line_name": "青岛沿海 110kV 输电线路",
    "asset_type": "110kV角钢塔",
    "model": "ZBC-110-21",
    "location": {"lat": 36.0823, "lon": 120.3712, "address": "青岛市黄岛区"},
    "commission_year": 2016,
    "manager": "张海涛",
    "manager_phone": "137-xxxx-3003",
    "voltage_kv": 110,
    "circuit_count": 2,
    "insulator_type": "复合绝缘子 FXBW-110/100",
    "conductor_type": "LGJ-185/30",
    "remarks": "高盐雾环境，防腐与污秽巡视周期缩短"
  },
  {
    "asset_id": "QD-110-103",
    "line_name": "青岛沿海 110kV 输电线路",
    "asset_type": "110kV角钢塔",
    "model": "ZBC-110-24",
    "location": {"lat": 36.0721, "lon": 120.4012, "address": "青岛市黄岛区"},
    "commission_year": 2014,
    "manager": "张海涛",
    "manager_phone": "137-xxxx-3003",
    "voltage_kv": 110,
    "circuit_count": 2,
    "insulator_type": "瓷质绝缘子 LXY-120",
    "conductor_type": "LGJ-185/30",
    "remarks": "高盐雾 + 污秽等级 d 级"
  },
  {
    "asset_id": "QD-220-205",
    "line_name": "青岛海岸 220kV 输电线路",
    "asset_type": "220kV钢管塔",
    "model": "GG1-220-32",
    "location": {"lat": 36.1023, "lon": 120.3456, "address": "青岛市西海岸新区"},
    "commission_year": 2019,
    "manager": "张海涛",
    "manager_phone": "137-xxxx-3003",
    "voltage_kv": 220,
    "circuit_count": 1,
    "insulator_type": "复合绝缘子 FXBW-220/160",
    "conductor_type": "LGJ-400/50",
    "remarks": "投运较新，主要关注金具与温升"
  }
]
